{
  "locations": [
    {
      "loc_name": "Euston",
      "loc_lat": 51.528118,
      "loc_long": -0.133112,
      "events":[]
    },
    {
      "loc_name": "Russel Square",
      "loc_lat": 51.52169,
      "loc_long": -0.125965,
      "events":[]
    },
    {
      "loc_name": "Knowledge Lab",
      "loc_lat": 51.521725,
      "loc_long": -0.117677,
      "events":[]
    },
    {
      "loc_name": "Tottenham St",
      "loc_lat": 51.520836,
      "loc_long": -0.134872,
      "events":[]
    },
	{
	"loc_name": "Archway",
      "loc_lat": 51.563805, 
      "loc_long": -0.129601,
      "events":[]
	},
	{
	"loc_name": "CASA UCL",
      "loc_lat": 51.521912, 
      "loc_long": -0.135973,
      "events":["CoconutEffect.mp3"]
	},
	{
	"loc_name": "Farmer Market",
      "loc_lat": 51.523072,
      "loc_long":  -0.130954,
	  "events":["BrambushLiss.mp3"]
    } 
  ]
}