{"request_time":"2016-08-11 15:27:26 +0100","line":"piccadilly","line_name":"Piccadilly","stations":[{"station_code":"ACT","atcocode":"940GZZLUACT","name":"Acton Town","mode":"tube","longitude":-0.28046,"latitude":51.50306,"lines":["district","piccadilly"]},{"station_code":"ALP","atcocode":"940GZZLUALP","name":"Alperton","mode":"tube","longitude":-0.29961,"latitude":51.54063,"lines":["piccadilly"]},{"station_code":"AGR","atcocode":"940GZZLUASG","name":"Arnos Grove","mode":"tube","longitude":-0.13306,"latitude":51.61645,"lines":["piccadilly"]},{"station_code":"ARL","atcocode":"940GZZLUASL","name":"Arsenal","mode":"tube","longitude":-0.10745,"latitude":51.55866,"lines":["piccadilly"]},{"station_code":"BCT","atcocode":"940GZZLUBSC","name":"Barons Court","mode":"tube","longitude":-0.21373,"latitude":51.49028,"lines":["district","piccadilly"]},{"station_code":"BOS","atcocode":"940GZZLUBOS","name":"Boston Manor","mode":"tube","longitude":-0.32557,"latitude":51.49523,"lines":["piccadilly"]},{"station_code":"BGR","atcocode":"940GZZLUBDS","name":"Bounds Green","mode":"tube","longitude":-0.12433,"latitude":51.6071,"lines":["piccadilly"]},{"station_code":"CRD","atcocode":"940GZZLUCAR","name":"Caledonian Road","mode":"tube","longitude":-0.11849,"latitude":51.54852,"lines":["piccadilly"]},{"station_code":"CFS","atcocode":"940GZZLUCKS","name":"Cockfosters","mode":"tube","longitude":-0.14917,"latitude":51.65152,"lines":["piccadilly"]},{"station_code":"COV","atcocode":"940GZZLUCGN","name":"Covent Garden","mode":"tube","longitude":-0.12443,"latitude":51.5131,"lines":["piccadilly"]},{"station_code":"ECM","atcocode":"940GZZLUECM","name":"Ealing Common","mode":"tube","longitude":-0.28827,"latitude":51.51015,"lines":["district","piccadilly"]},{"station_code":"ECT","atcocode":"940GZZLUECT","name":"Earls Court","mode":"tube","longitude":-0.1931,"latitude":51.49204,"lines":["district","piccadilly"]},{"station_code":"ETE","atcocode":"940GZZLUEAE","name":"Eastcote","mode":"tube","longitude":-0.39738,"latitude":51.5765,"lines":["metropolitan","piccadilly"]},{"station_code":"FPK","atcocode":"940GZZLUFPK","name":"Finsbury Park","mode":"tube","longitude":-0.10682,"latitude":51.56416,"lines":["piccadilly","victoria"]},{"station_code":"GRD","atcocode":"940GZZLUGTR","name":"Gloucester Road","mode":"tube","longitude":-0.18265,"latitude":51.49432,"lines":["district","circle","piccadilly"]},{"station_code":"GPK","atcocode":"940GZZLUGPK","name":"Green Park","mode":"tube","longitude":-0.14278,"latitude":51.50695,"lines":["piccadilly","victoria","jubilee"]},{"station_code":"HMD","atcocode":"940GZZLUHSD","name":"Hammersmith (District and Picc)","mode":"tube","longitude":-0.22362,"latitude":51.4923,"lines":["district","piccadilly"]},{"station_code":"HTX","atcocode":"940GZZLUHNX","name":"Hatton Cross","mode":"tube","longitude":-0.42318,"latitude":51.46675,"lines":["piccadilly"]},{"station_code":"HRC","atcocode":"940GZZLUHRC","name":"Heathrow Terminal 123","mode":"tube","longitude":-0.45226,"latitude":51.47124,"lines":["piccadilly"]},{"station_code":"HRF","atcocode":"940GZZLUHR4","name":"Heathrow Terminal 4","mode":"tube","longitude":-0.44576,"latitude":51.45853,"lines":["piccadilly"]},{"station_code":"HRV","atcocode":"940GZZLUHR5","name":"Heathrow Terminal 5","mode":"tube","longitude":-0.49055,"latitude":51.47006,"lines":["piccadilly"]},{"station_code":"HDN","atcocode":"940GZZLUHGD","name":"Hillingdon","mode":"tube","longitude":-0.44932,"latitude":51.55384,"lines":["metropolitan","piccadilly"]},{"station_code":"HOL","atcocode":"940GZZLUHBN","name":"Holborn","mode":"tube","longitude":-0.12047,"latitude":51.51758,"lines":["central","piccadilly"]},{"station_code":"HRD","atcocode":"940GZZLUHWY","name":"Holloway Road","mode":"tube","longitude":-0.11324,"latitude":51.5527,"lines":["piccadilly"]},{"station_code":"HNC","atcocode":"940GZZLUHWC","name":"Hounslow Central","mode":"tube","longitude":-0.36632,"latitude":51.47128,"lines":["piccadilly"]},{"station_code":"HNE","atcocode":"940GZZLUHWE","name":"Hounslow East","mode":"tube","longitude":-0.3571,"latitude":51.47306,"lines":["piccadilly"]},{"station_code":"HNW","atcocode":"940GZZLUHWT","name":"Hounslow West","mode":"tube","longitude":-0.38653,"latitude":51.47347,"lines":["piccadilly"]},{"station_code":"HPC","atcocode":"940GZZLUHPC","name":"Hyde Park Corner","mode":"tube","longitude":-0.15244,"latitude":51.50304,"lines":["piccadilly"]},{"station_code":"ICK","atcocode":"940GZZLUICK","name":"Ickenham","mode":"tube","longitude":-0.44199,"latitude":51.56199,"lines":["metropolitan","piccadilly"]},{"station_code":"KXX","atcocode":"940GZZLUKSX","name":"King's Cross St. Pancras","mode":"tube","longitude":-0.12319,"latitude":51.53067,"lines":["circle","hammersmith","metropolitan","victoria","piccadilly","northern"]},{"station_code":"KNB","atcocode":"940GZZLUKNB","name":"Knightsbridge","mode":"tube","longitude":-0.1605,"latitude":51.50167,"lines":["piccadilly"]},{"station_code":"LSQ","atcocode":"940GZZLULSQ","name":"Leicester Square","mode":"tube","longitude":-0.12842,"latitude":51.51139,"lines":["piccadilly","northern"]},{"station_code":"MNR","atcocode":"940GZZLUMRH","name":"Manor House","mode":"tube","longitude":-0.09611,"latitude":51.57074,"lines":["piccadilly"]},{"station_code":"NEL","atcocode":"940GZZLUNEN","name":"North Ealing","mode":"tube","longitude":-0.28887,"latitude":51.51751,"lines":["piccadilly"]},{"station_code":"NFD","atcocode":"940GZZLUNFD","name":"Nothfields","mode":"tube","longitude":-0.31472,"latitude":51.49932,"lines":["piccadilly"]},{"station_code":"OAK","atcocode":"940GZZLUOAK","name":"Oakwood","mode":"tube","longitude":-0.13216,"latitude":51.64773,"lines":["piccadilly"]},{"station_code":"OST","atcocode":"940GZZLUOSY","name":"Osterley","mode":"tube","longitude":-0.35258,"latitude":51.48112,"lines":["piccadilly"]},{"station_code":"PRY","atcocode":"940GZZLUPKR","name":"Park Royal","mode":"tube","longitude":-0.28434,"latitude":51.52713,"lines":["piccadilly"]},{"station_code":"PIC","atcocode":"940GZZLUPCC","name":"Piccadilly Circus","mode":"tube","longitude":-0.13379,"latitude":51.51005,"lines":["bakerloo","piccadilly"]},{"station_code":"RLN","atcocode":"940GZZLURYL","name":"Rayners Lane","mode":"tube","longitude":-0.37154,"latitude":51.57496,"lines":["metropolitan","piccadilly"]},{"station_code":"RUI","atcocode":"940GZZLURSP","name":"Ruislip","mode":"tube","longitude":-0.42189,"latitude":51.57135,"lines":["metropolitan","piccadilly"]},{"station_code":"RUM","atcocode":"940GZZLURSM","name":"Ruislip Manor","mode":"tube","longitude":-0.41296,"latitude":51.5732,"lines":["metropolitan","piccadilly"]},{"station_code":"RSQ","atcocode":"940GZZLURSQ","name":"Russell Square","mode":"tube","longitude":-0.12428,"latitude":51.52308,"lines":["piccadilly"]},{"station_code":"SEL","atcocode":"940GZZLUSEA","name":"South Ealing","mode":"tube","longitude":-0.30876,"latitude":51.50065,"lines":["piccadilly"]},{"station_code":"SHR","atcocode":"940GZZLUSHH","name":"South Harrow","mode":"tube","longitude":-0.35249,"latitude":51.56489,"lines":["piccadilly"]},{"station_code":"SKN","atcocode":"940GZZLUSKS","name":"South Kensington","mode":"tube","longitude":-0.17414,"latitude":51.4941,"lines":["circle","district","piccadilly"]},{"station_code":"SGT","atcocode":"940GZZLUSGT","name":"Southgate","mode":"tube","longitude":-0.12781,"latitude":51.63232,"lines":["piccadilly"]},{"station_code":"SHL","atcocode":"940GZZLUSUH","name":"Sudbury Hill","mode":"tube","longitude":-0.33607,"latitude":51.55684,"lines":["piccadilly"]},{"station_code":"STN","atcocode":"940GZZLUSUT","name":"Sudbury Town","mode":"tube","longitude":-0.31575,"latitude":51.55082,"lines":["piccadilly"]},{"station_code":"TGR","atcocode":"940GZZLUTNG","name":"Turnham Green","mode":"tube","longitude":-0.25451,"latitude":51.49513,"lines":["district","piccadilly"]},{"station_code":"TPL","atcocode":"940GZZLUTPN","name":"Turnpike Lane","mode":"tube","longitude":-0.10295,"latitude":51.59028,"lines":["piccadilly"]},{"station_code":"UXB","atcocode":"940GZZLUUXB","name":"Uxbridge","mode":"tube","longitude":-0.47794,"latitude":51.54656,"lines":["metropolitan","piccadilly"]},{"station_code":"WGN","atcocode":"940GZZLUWOG","name":"Woodgreen","mode":"tube","longitude":-0.10988,"latitude":51.59749,"lines":["piccadilly"]}],"line_status":"Good Service","line_status_descripion":"Good Service","status_updated":"2016-08-11 15:21:44 +0100"}