{"request_time":"2016-08-11 15:20:29 +0100","line":"circle","line_name":"Circle","stations":[{"station_code":"ALD","atcocode":"940GZZLUALD","name":"Aldgate","mode":"tube","longitude":-0.07586,"latitude":51.51449,"lines":["circle","metropolitan"]},{"station_code":"BST","atcocode":"940GZZLUBST","name":"Baker Street","mode":"tube","longitude":-0.15653,"latitude":51.52273,"lines":["metropolitan","jubilee","circle","hammersmith","bakerloo"]},{"station_code":"BAR","atcocode":"940GZZLUBBN","name":"Barbican","mode":"tube","longitude":-0.09724,"latitude":51.52031,"lines":["circle","hammersmith","metropolitan"]},{"station_code":"BAY","atcocode":"940GZZLUBWT","name":"Bayswater","mode":"tube","longitude":-0.18794,"latitude":51.51229,"lines":["circle"]},{"station_code":"BLF","atcocode":"940GZZLUBKF","name":"Blackfriars","mode":"tube","longitude":-0.10365,"latitude":51.51159,"lines":["circle","district"]},{"station_code":"CST","atcocode":"940GZZLUCST","name":"Cannon Street","mode":"tube","longitude":-0.09043,"latitude":51.51151,"lines":["circle","district"]},{"station_code":"ERD","atcocode":"940GZZLUERC","name":"Edgware Road (Cir)","mode":"tube","longitude":-0.16783,"latitude":51.51986,"lines":["circle","district","hammersmith"]},{"station_code":"EMB","atcocode":"940GZZLUEMB","name":"Embankment","mode":"tube","longitude":-0.12266,"latitude":51.50706,"lines":["circle","district","northern","bakerloo"]},{"station_code":"ESQ","atcocode":"940GZZLUESQ","name":"Euston Square","mode":"tube","longitude":-0.13582,"latitude":51.52561,"lines":["circle","hammersmith","metropolitan"]},{"station_code":"FAR","atcocode":"940GZZLUFCN","name":"Farringdon","mode":"tube","longitude":-0.10516,"latitude":51.52043,"lines":["circle","hammersmith","metropolitan"]},{"station_code":"GRD","atcocode":"940GZZLUGTR","name":"Gloucester Road","mode":"tube","longitude":-0.18265,"latitude":51.49432,"lines":["district","circle","piccadilly"]},{"station_code":"GHK","atcocode":"940GZZLUGHK","name":"Goldhawk Road","mode":"tube","longitude":-0.2266,"latitude":51.50195,"lines":["circle","hammersmith"]},{"station_code":"GPS","atcocode":"940GZZLUGPS","name":"Great Portland Street","mode":"tube","longitude":-0.14426,"latitude":51.52384,"lines":["circle","hammersmith","metropolitan"]},{"station_code":"HMS","atcocode":"940GZZLUHSC","name":"Hammersmith (Circle and H)","mode":"tube","longitude":-0.22501,"latitude":51.49354,"lines":["circle","hammersmith"]},{"station_code":"HST","atcocode":"940GZZLUHSK","name":"High Street Kensington","mode":"tube","longitude":-0.19279,"latitude":51.50106,"lines":["circle","district"]},{"station_code":"KXX","atcocode":"940GZZLUKSX","name":"King's Cross St. Pancras","mode":"tube","longitude":-0.12319,"latitude":51.53067,"lines":["circle","hammersmith","metropolitan","victoria","piccadilly","northern"]},{"station_code":"LBG","atcocode":"940GZZLULAD","name":"Ladbroke Grove","mode":"tube","longitude":-0.21093,"latitude":51.51725,"lines":["circle","hammersmith"]},{"station_code":"LRD","atcocode":"940GZZLULRD","name":"Latimer Road","mode":"tube","longitude":-0.21759,"latitude":51.51362,"lines":["circle","hammersmith"]},{"station_code":"LST","atcocode":"940GZZLULVT","name":"Liverpool Street","mode":"tube","longitude":-0.08318,"latitude":51.51738,"lines":["circle","hammersmith","metropolitan","central"]},{"station_code":"MAN","atcocode":"940GZZLUMSH","name":"Mansion House","mode":"tube","longitude":-0.09409,"latitude":51.51187,"lines":["circle","district"]},{"station_code":"MON","atcocode":"940GZZLUMMT","name":"Monument","mode":"tube","longitude":-0.08596,"latitude":51.5107,"lines":["circle","district"]},{"station_code":"MGT","atcocode":"940GZZLUMGT","name":"Moorgate","mode":"tube","longitude":-0.08832,"latitude":51.51818,"lines":["circle","hammersmith","metropolitan","northern"]},{"station_code":"NHG","atcocode":"940GZZLUNHG","name":"Notting Hill Gate","mode":"tube","longitude":-0.1961,"latitude":51.50913,"lines":["circle","central"]},{"station_code":"PADc","atcocode":"940GZZLUPAH","name":"Paddington (Circle)","mode":"tube","longitude":-0.1783,"latitude":51.51819,"lines":["circle","district"]},{"station_code":"PADs","atcocode":"940GZZLUPAH","name":"Paddington (H & C line)","mode":"tube","longitude":-0.17858,"latitude":51.51847,"lines":["circle","hammersmith"]},{"station_code":"ROA","atcocode":"940GZZLURYO","name":"Royal Oak","mode":"tube","longitude":-0.18809,"latitude":51.51908,"lines":["circle","hammersmith"]},{"station_code":"SBM","atcocode":"940GZZLUSBM","name":"Shepherd's Bush Market","mode":"tube","longitude":-0.22635,"latitude":51.50578,"lines":["circle","hammersmith"]},{"station_code":"SSQ","atcocode":"940GZZLUSSQ","name":"Sloane Square","mode":"tube","longitude":-0.15637,"latitude":51.49227,"lines":["circle","district"]},{"station_code":"SKN","atcocode":"940GZZLUSKS","name":"South Kensington","mode":"tube","longitude":-0.17414,"latitude":51.4941,"lines":["circle","district","piccadilly"]},{"station_code":"SJP","atcocode":"940GZZLUSJP","name":"St. Jame's Park","mode":"tube","longitude":-0.1336,"latitude":51.49955,"lines":["circle","district"]},{"station_code":"TEM","atcocode":"940GZZLUTMP","name":"Temple","mode":"tube","longitude":-0.11426,"latitude":51.51101,"lines":["circle","district"]},{"station_code":"THL","atcocode":"940GZZLUTWH","name":"Tower Hill","mode":"tube","longitude":-0.07654,"latitude":51.50998,"lines":["circle","district"]},{"station_code":"VIC","atcocode":"940GZZLUVIC","name":"Victoria","mode":"tube","longitude":-0.1431,"latitude":51.49636,"lines":["circle","district","victoria"]},{"station_code":"WBP","atcocode":"940GZZLUWSP","name":"Westbourne Park","mode":"tube","longitude":-0.20096,"latitude":51.52087,"lines":["circle","hammersmith"]},{"station_code":"WMS","atcocode":"940GZZLUWSM","name":"Westminster","mode":"tube","longitude":-0.12486,"latitude":51.50132,"lines":["circle","district","jubilee"]},{"station_code":"WLA","atcocode":"940GZZLUWLA","name":"Wood Lane","mode":"tube","longitude":-0.22397,"latitude":51.50987,"lines":["circle","hammersmith"]}],"line_status":"Good Service","line_status_descripion":"Good Service","status_updated":"2016-08-11 15:16:50 +0100"}